[
    {
        "name": "Public Toilet - Toilet 140 - Queensberry Street (Opposite 286 Queensberry Street)",
        "female": "no",
        "male": "yes",
        "wheelchair": "no",
        "operator": "City of Melbourne",
        "baby_facil": "no",
        "lat": "-37.8039946349673",
        "lon": "144.95909066756946"
    },
    {
        "name": "Public Toilet - Toilet 106 - Kings Domain Government House Drive",
        "female": "yes",
        "male": "yes",
        "wheelchair": "no",
        "operator": "City of Melbourne",
        "baby_facil": "no",
        "lat": "-37.82691574923448",
        "lon": "144.9746477838788"
    },
    {
        "name": "Public Toilet - Queen Victoria Market (153 Victoria Street)",
        "female": "yes",
        "male": "yes",
        "wheelchair": "no",
        "operator": "City of Melbourne",
        "baby_facil": "no",
        "lat": "-37.806121499077804",
        "lon": "144.95653844268273"
    },
    {
        "name": "Public Toilet - Victoria Harbour, Shed 3 (North Wharf Road)",
        "female": "no",
        "male": "yes",
        "wheelchair": "no",
        "operator": "City of Melbourne",
        "baby_facil": "no",
        "lat": "-37.819795975740334",
        "lon": "144.93766540530564"
    },
    {
        "name": "Public Toilet - Toilet 6 - Elizabeth Street (Toilet Adjacent 200 Elizabeth Street)",
        "female": "yes",
        "male": "no",
        "wheelchair": "no",
        "operator": "City of Melbourne",
        "baby_facil": "no",
        "lat": "-37.81383779217631",
        "lon": "144.96309721024045"
    },
    {
        "name": "Public Toilet - Toilet 142 - Queensberry Street (Adjacent 179 Queensberry Street)",
        "female": "no",
        "male": "yes",
        "wheelchair": "no",
        "operator": "City of Melbourne",
        "baby_facil": "no",
        "lat": "-37.80463970714722",
        "lon": "144.96285021945613"
    },
    {
        "name": "Public Toilet - Toilet 128 - Princes Park South Playground (Princes Park Drive)",
        "female": "yes",
        "male": "yes",
        "wheelchair": "yes",
        "operator": "City of Melbourne",
        "baby_facil": "no",
        "lat": "-37.785598387452595",
        "lon": "144.9630353603256"
    },
    {
        "name": "Public Toilet - Toilet 154 - Flagstaff Gardens (cnr William & Dudley)",
        "female": "yes",
        "male": "yes",
        "wheelchair": "yes",
        "operator": "City of Melbourne",
        "baby_facil": "no",
        "lat": "-37.808913242351316",
        "lon": "144.95504018635694"
    },
    {
        "name": "Public Toilet - Victoria Harbour, Shed 2 (North Wharf Road)",
        "female": "yes",
        "male": "yes",
        "wheelchair": "yes",
        "operator": "City of Melbourne",
        "baby_facil": "no",
        "lat": "-37.818924455699296",
        "lon": "144.9342385117904"
    },
    {
        "name": "Public Toilet - Toilet 14 - Flinders Street (27 Flinders Street)",
        "female": "no",
        "male": "yes",
        "wheelchair": "no",
        "operator": "City of Melbourne",
        "baby_facil": "no",
        "lat": "-37.81598982599987",
        "lon": "144.97279836576897"
    },
    {
        "name": "Public Toilet - Toilet 107 - Alexandra Park",
        "female": "yes",
        "male": "yes",
        "wheelchair": "yes",
        "operator": "City of Melbourne",
        "baby_facil": "no",
        "lat": "-37.82764304616528",
        "lon": "144.9818116607595"
    },
    {
        "name": "Public Toilet - Toilet 169 - Batman Park (2A Spencer Street)",
        "female": "yes",
        "male": "yes",
        "wheelchair": "yes",
        "operator": "City of Melbourne",
        "baby_facil": "no",
        "lat": "-37.821720681669966",
        "lon": "144.95557809313962"
    },
    {
        "name": "Public Toilet - Saint Mangos Lane, The Palladio (New Quay)",
        "female": "yes",
        "male": "yes",
        "wheelchair": "yes",
        "operator": "City of Melbourne",
        "baby_facil": "no",
        "lat": "-37.81435831108069",
        "lon": "144.94168216712015"
    },
    {
        "name": "Public Toilet - Toilet 6 - Elizabeth Street (Toilet Adjacent 200 Elizabeth Street)",
        "female": "no",
        "male": "yes",
        "wheelchair": "no",
        "operator": "City of Melbourne",
        "baby_facil": "no",
        "lat": "-37.81343920794399",
        "lon": "144.96292272645067"
    },
    {
        "name": "Public Toilet - Toilet 1 - Lonsdale Street (Opposite 581 Lonsdale Street)",
        "female": "yes",
        "male": "yes",
        "wheelchair": "yes",
        "operator": "City of Melbourne",
        "baby_facil": "no",
        "lat": "-37.814345522392365",
        "lon": "144.9551179464378"
    },
    {
        "name": "Public Toilet - Toilet 145 - Carlton Gardens South (Opposite 39 Rathdowne Street)",
        "female": "yes",
        "male": "yes",
        "wheelchair": "yes",
        "operator": "City of Melbourne",
        "baby_facil": "no",
        "lat": "-37.80625893301874",
        "lon": "144.9692027022002"
    },
    {
        "name": "Public Toilet - Royal Park Brens Pavilion",
        "female": "yes",
        "male": "yes",
        "wheelchair": "no",
        "operator": "City of Melbourne",
        "baby_facil": "no",
        "lat": "-37.78622124839705",
        "lon": "144.9550008758734"
    },
    {
        "name": "Public Toilet - Toilet 177 - Bellair Street (Opposite 180 Bellair Street)",
        "female": "yes",
        "male": "yes",
        "wheelchair": "yes",
        "operator": "City of Melbourne",
        "baby_facil": "no",
        "lat": "-37.79373229128235",
        "lon": "144.9303518616331"
    },
    {
        "name": "Public Toilet - Toilet 7 - Latrobe Street (Adjacent 120 La Trobe Street)",
        "female": "no",
        "male": "yes",
        "wheelchair": "no",
        "operator": "City of Melbourne",
        "baby_facil": "no",
        "lat": "-37.80894206847336",
        "lon": "144.9656488455227"
    },
    {
        "name": "Public Toilet - Toilet 124 - Nicholson Street (1A Nicholson Street)",
        "female": "no",
        "male": "yes",
        "wheelchair": "no",
        "operator": "City of Melbourne",
        "baby_facil": "no",
        "lat": "-37.80945202894246",
        "lon": "144.97307695563703"
    },
    {
        "name": "Public Toilet - Toilet 4 - Market Street (Opposite 74 Market Street)",
        "female": "yes",
        "male": "yes",
        "wheelchair": "yes",
        "operator": "City of Melbourne",
        "baby_facil": "no",
        "lat": "-37.81746989209639",
        "lon": "144.96025433528794"
    },
    {
        "name": "Public Toilet - Toilet 138 - Carlton Gardens North (Opposite 199 Rathdowne Street)",
        "female": "yes",
        "male": "yes",
        "wheelchair": "yes",
        "operator": "City of Melbourne",
        "baby_facil": "no",
        "lat": "-37.80264555498511",
        "lon": "144.96982128721504"
    },
    {
        "name": "Public Toilet - Toilet 133- Canning Street Reserve (49 Princes Street)",
        "female": "no",
        "male": "yes",
        "wheelchair": "no",
        "operator": "City of Melbourne",
        "baby_facil": "no",
        "lat": "-37.79301167872576",
        "lon": "144.97399489761827"
    },
    {
        "name": "Public Toilet - Toilet 102 - Fawkner Park, North Pavilion (Male)",
        "female": "no",
        "male": "yes",
        "wheelchair": "no",
        "operator": "City of Melbourne",
        "baby_facil": "no",
        "lat": "-37.840147692965054",
        "lon": "144.98138308753735"
    },
    {
        "name": "Public Toilet - Toilet 181 - Point Park (Point Park Crescent)",
        "female": "yes",
        "male": "yes",
        "wheelchair": "yes",
        "operator": "City of Melbourne",
        "baby_facil": "yes",
        "lat": "-37.82331083443533",
        "lon": "144.94182760665478"
    },
    {
        "name": "Public Toilet - Toilet 173 - JJ Holland Park, Skate Park (113 Kensington Road)",
        "female": "yes",
        "male": "yes",
        "wheelchair": "yes",
        "operator": "City of Melbourne",
        "baby_facil": "no",
        "lat": "-37.798064023886866",
        "lon": "144.92110584392117"
    },
    {
        "name": "Public Toilet - Toilet 36 - Lonsdale Street (Opposite 424 Lonsdale Street)",
        "female": "yes",
        "male": "yes",
        "wheelchair": "yes",
        "operator": "City of Melbourne",
        "baby_facil": "U",
        "lat": "-37.8129330992456",
        "lon": "144.9600121469519"
    },
    {
        "name": "Public Toilet - Ron Barassi Senior Park Pavilion",
        "female": "U",
        "male": "U",
        "wheelchair": "U",
        "operator": "City of Melbourne",
        "baby_facil": "U",
        "lat": "-37.81722059052804",
        "lon": "144.93400271183998"
    },
    {
        "name": "Public Toilet - Toilet 118 - Fitzroy Gardens (2 Lansdowne Street)",
        "female": "yes",
        "male": "yes",
        "wheelchair": "yes",
        "operator": "City of Melbourne",
        "baby_facil": "no",
        "lat": "-37.815278082082735",
        "lon": "144.97758877995486"
    },
    {
        "name": "Public Toilet - Toilet 34 - Franklin Street (Opposite 80 Franklin Street)",
        "female": "yes",
        "male": "yes",
        "wheelchair": "yes",
        "operator": "City of Melbourne",
        "baby_facil": "no",
        "lat": "-37.8082334704767",
        "lon": "144.9601868749377"
    },
    {
        "name": "Public Toilet - Town Hall Melbourne (200 Collins Street)",
        "female": "yes",
        "male": "yes",
        "wheelchair": "yes",
        "operator": "City of Melbourne",
        "baby_facil": "yes",
        "lat": "-37.81521576619692",
        "lon": "144.96694328510318"
    },
    {
        "name": "Public Toilet - Toilet 137 - Faraday Street (Opposite 208-212 Faraday Street)",
        "female": "yes",
        "male": "yes",
        "wheelchair": "no",
        "operator": "City of Melbourne",
        "baby_facil": "no",
        "lat": "-37.798709597015986",
        "lon": "144.9675938800973"
    },
    {
        "name": "Public Toilet - Toilet 105 -Sturt Street Reserve (280 Sturt Street)",
        "female": "yes",
        "male": "yes",
        "wheelchair": "no",
        "operator": "City of Melbourne",
        "baby_facil": "no",
        "lat": "-37.830132537548096",
        "lon": "144.96501222835187"
    },
    {
        "name": "Public Toilet - Royal Park Golf Course Club House",
        "female": "yes",
        "male": "yes",
        "wheelchair": "no",
        "operator": "City of Melbourne",
        "baby_facil": "no",
        "lat": "-37.78187131786685",
        "lon": "144.95614252894822"
    },
    {
        "name": "Public Toilet - Newmarket Reserve (26 Smithfield Road)",
        "female": "yes",
        "male": "yes",
        "wheelchair": "no",
        "operator": "City of Melbourne",
        "baby_facil": "no",
        "lat": "-37.78848882114304",
        "lon": "144.9235637219743"
    },
    {
        "name": "Public Toilet - Toilet 131 - Royal Park (Flemington Rd - Near North Park Tennis Club)",
        "female": "yes",
        "male": "yes",
        "wheelchair": "yes",
        "operator": "City of Melbourne",
        "baby_facil": "no",
        "lat": "-37.790174410412384",
        "lon": "144.94366905096865"
    },
    {
        "name": "Public Toilet - Toilet 11 - Lonsdale Street (Opposite 88 Lonsdale Street)",
        "female": "yes",
        "male": "yes",
        "wheelchair": "yes",
        "operator": "City of Melbourne",
        "baby_facil": "no",
        "lat": "-37.810035679928596",
        "lon": "144.96990246330486"
    },
    {
        "name": "Public Toilet - Toilet 13 - Exhibition Street (Opposite 77 Exhibition Street)",
        "female": "yes",
        "male": "yes",
        "wheelchair": "yes",
        "operator": "City of Melbourne",
        "baby_facil": "no",
        "lat": "-37.81384641664995",
        "lon": "144.9713740947211"
    },
    {
        "name": "Public Toilet - Toilet 146 - Swanston Street (Opposite 475-511 Swanston Street)",
        "female": "yes",
        "male": "no",
        "wheelchair": "no",
        "operator": "City of Melbourne",
        "baby_facil": "no",
        "lat": "-37.80680576738025",
        "lon": "144.96264850030644"
    },
    {
        "name": "Public Toilet - Toilet 12 - Exhibition Street (Opposite 242 Exhibition Street)",
        "female": "no",
        "male": "yes",
        "wheelchair": "no",
        "operator": "City of Melbourne",
        "baby_facil": "no",
        "lat": "-37.80954604636232",
        "lon": "144.9694071187106"
    },
    {
        "name": "Public Toilet - Toilet 127 - Princes Park Royal Parade (near Park Street)",
        "female": "yes",
        "male": "yes",
        "wheelchair": "yes",
        "operator": "City of Melbourne",
        "baby_facil": "no",
        "lat": "-37.778949609006396",
        "lon": "144.96046591899102"
    },
    {
        "name": "Public Toilet - Toilet 117 - Powlett Reserve (Opposite 128 Albert Street)",
        "female": "yes",
        "male": "yes",
        "wheelchair": "yes",
        "operator": "City of Melbourne",
        "baby_facil": "no",
        "lat": "-37.81094232809633",
        "lon": "144.98685873937842"
    },
    {
        "name": "Public Toilet - Toilet 182 - Docklands Park South - 25 Harbour Esplanade",
        "female": "yes",
        "male": "yes",
        "wheelchair": "yes",
        "operator": "City of Melbourne",
        "baby_facil": "yes",
        "lat": "-37.82175860330799",
        "lon": "144.94738341867807"
    },
    {
        "name": "Public Toilet - Toilet 111 - Birrarung Marr Speakers Corner",
        "female": "yes",
        "male": "yes",
        "wheelchair": "yes",
        "operator": "City of Melbourne",
        "baby_facil": "no",
        "lat": "-37.821004779775386",
        "lon": "144.97593322373976"
    },
    {
        "name": "Public Toilet - Toilet 102 - Fawkner Park, North Pavilion (Female)",
        "female": "yes",
        "male": "no",
        "wheelchair": "no",
        "operator": "City of Melbourne",
        "baby_facil": "no",
        "lat": "-37.84001779326322",
        "lon": "144.98122701462214"
    },
    {
        "name": "Public Toilet - Toilet 170 - Queensberry Street (Opposite 530 Queensberry Street)",
        "female": "no",
        "male": "yes",
        "wheelchair": "no",
        "operator": "City of Melbourne",
        "baby_facil": "no",
        "lat": "-37.80307786641225",
        "lon": "144.94986517956968"
    },
    {
        "name": "Public Toilet - Queen Victoria Market - (Meat Hall / \"H\" Shed)",
        "female": "yes",
        "male": "yes",
        "wheelchair": "no",
        "operator": "City of Melbourne",
        "baby_facil": "no",
        "lat": "-37.80682129201847",
        "lon": "144.95874700464088"
    },
    {
        "name": "Public Toilet - Toilet 42 - Fawkner Park, Opposite 55 Commercial Road",
        "female": "yes",
        "male": "yes",
        "wheelchair": "yes",
        "operator": "City of Melbourne",
        "baby_facil": "no",
        "lat": "-37.845206563009405",
        "lon": "144.9826144313013"
    },
    {
        "name": "Public Toilet - Toilet 122 - Treasury Gardens (Store and Toilet)",
        "female": "yes",
        "male": "yes",
        "wheelchair": "yes",
        "operator": "City of Melbourne",
        "baby_facil": "no",
        "lat": "-37.81341843500891",
        "lon": "144.97746700744847"
    },
    {
        "name": "Public Toilet - Toilet 3 - Flinders Street (399 Flinders Street)",
        "female": "yes",
        "male": "yes",
        "wheelchair": "yes",
        "operator": "City of Melbourne",
        "baby_facil": "no",
        "lat": "-37.81940611413847",
        "lon": "144.96127683121782"
    },
    {
        "name": "Public Toilet - Toilet 120 - Royal Park, Wetland (off Oak Street)",
        "female": "yes",
        "male": "yes",
        "wheelchair": "yes",
        "operator": "City of Melbourne",
        "baby_facil": "no",
        "lat": "-37.78303248417686",
        "lon": "144.94185635299425"
    },
    {
        "name": "Public Toilet - Toilet 162 - JJ Holland Park (Opposite, 48 Altona Street)",
        "female": "yes",
        "male": "yes",
        "wheelchair": "yes",
        "operator": "City of Melbourne",
        "baby_facil": "no",
        "lat": "-37.79812546150608",
        "lon": "144.92642466756246"
    },
    {
        "name": "Public Toilet - Queen Victoria Market (Food Court - 65-81 Victoria Street)",
        "female": "yes",
        "male": "yes",
        "wheelchair": "no",
        "operator": "City of Melbourne",
        "baby_facil": "no",
        "lat": "-37.80637961897052",
        "lon": "144.95905779158946"
    },
    {
        "name": "Public Toilet - Toilet 103 - Kings Domain South (Opposite 169 Domain Road)",
        "female": "yes",
        "male": "yes",
        "wheelchair": "yes",
        "operator": "City of Melbourne",
        "baby_facil": "no",
        "lat": "-37.83393826633729",
        "lon": "144.9817840463506"
    },
    {
        "name": "Public Toilet - Toilet 48 - Birrarung Marr (Opposite Artplay)",
        "female": "yes",
        "male": "yes",
        "wheelchair": "yes",
        "operator": "City of Melbourne",
        "baby_facil": "no",
        "lat": "-37.81859887229392",
        "lon": "144.97105956826815"
    },
    {
        "name": "Public Toilet - Toilet 44 - Fawkner Park, Opposite 150W Toorak Road",
        "female": "yes",
        "male": "yes",
        "wheelchair": "yes",
        "operator": "City of Melbourne",
        "baby_facil": "no",
        "lat": "-37.83825284124979",
        "lon": "144.98438921994168"
    },
    {
        "name": "Public Toilet - Toilet 104 - Kings Domain South (off Birdwood Avenue)",
        "female": "yes",
        "male": "yes",
        "wheelchair": "yes",
        "operator": "City of Melbourne",
        "baby_facil": "no",
        "lat": "-37.83084912404898",
        "lon": "144.97518226820782"
    },
    {
        "name": "Public Toilet - Queen Victoria Market (465 Queen Street)",
        "female": "yes",
        "male": "yes",
        "wheelchair": "yes",
        "operator": "City of Melbourne",
        "baby_facil": "yes",
        "lat": "-37.80783122147196",
        "lon": "144.95795526595654"
    },
    {
        "name": "Public Toilet - Toilet 178 -  Argyle Place North (Opposite 4 Argyle Place North)",
        "female": "yes",
        "male": "yes",
        "wheelchair": "yes",
        "operator": "City of Melbourne",
        "baby_facil": "no",
        "lat": "-37.80207629420745",
        "lon": "144.96642403988702"
    },
    {
        "name": "Public Toilet - Toilet 100 - Royal Park - Native Garden (off Gatehouse Street)",
        "female": "yes",
        "male": "yes",
        "wheelchair": "yes",
        "operator": "City of Melbourne",
        "baby_facil": "no",
        "lat": "-37.79251146448698",
        "lon": "144.95685172084129"
    },
    {
        "name": "Public Toilet - Toilet 172 - Southbank Promenade (opposite Esso House)",
        "female": "yes",
        "male": "yes",
        "wheelchair": "yes",
        "operator": "City of Melbourne",
        "baby_facil": "no",
        "lat": "-37.82034212858627",
        "lon": "144.96421972799456"
    },
    {
        "name": "Public Toilet - Toilet 46 - Bourke Street (opposite 225 Bourke Street)",
        "female": "yes",
        "male": "yes",
        "wheelchair": "yes",
        "operator": "City of Melbourne",
        "baby_facil": "no",
        "lat": "-37.81324543360198",
        "lon": "144.9668965896814"
    },
    {
        "name": "Public Toilet - Toilet 109 - Kings Domain Myer Music Bowl Rear of",
        "female": "yes",
        "male": "yes",
        "wheelchair": "yes",
        "operator": "City of Melbourne",
        "baby_facil": "yes",
        "lat": "-37.82289159858857",
        "lon": "144.975280957334"
    },
    {
        "name": "Public Toilet - Toilet 125 - Gordon Reserve (74-108 Spring Street)",
        "female": "yes",
        "male": "no",
        "wheelchair": "no",
        "operator": "City of Melbourne",
        "baby_facil": "no",
        "lat": "-37.81224077558713",
        "lon": "144.97392555886628"
    },
    {
        "name": "Public Toilet - Toilet 52 - Princes Park (Adjacent Southern Sports Pavilion)",
        "female": "yes",
        "male": "yes",
        "wheelchair": "yes",
        "operator": "City of Melbourne",
        "baby_facil": "no",
        "lat": "-37.787904827147685",
        "lon": "144.95949479077186"
    },
    {
        "name": "Public Toilet - Toilet 55 - Royal Park (Nature Play, Opposite 51 Gatehouse Street)",
        "female": "yes",
        "male": "yes",
        "wheelchair": "yes",
        "operator": "City of Melbourne",
        "baby_facil": "no",
        "lat": "-37.795523148389",
        "lon": "144.95214296280201"
    },
    {
        "name": "Public Toilet - Toilet 112 - Alexandra Gardens (Riverslide Skate Park)",
        "female": "yes",
        "male": "yes",
        "wheelchair": "yes",
        "operator": "City of Melbourne",
        "baby_facil": "no",
        "lat": "-37.8203552728411",
        "lon": "144.9733129088743"
    },
    {
        "name": "Public Toilet - Toilet 13 - Queensberry Street (Opposite 530 Queensberry Street)",
        "operator": "City of Melbourne",
        "baby_facil": "no",
        "lat": "-37.803094275484256",
        "lon": "144.94994632091922"
    },
    {
        "name": "Public Toilet - Toilet 179 - Lincoln Square (138-142 Bouverie Street)",
        "female": "yes",
        "male": "yes",
        "wheelchair": "yes",
        "operator": "City of Melbourne",
        "baby_facil": "no",
        "lat": "-37.80271182455448",
        "lon": "144.96226812695767"
    },
    {
        "name": "Public Toilet - Toilet 43 - Queen Street (opposite 113 Queen Street)",
        "female": "yes",
        "male": "yes",
        "wheelchair": "yes",
        "operator": "City of Melbourne",
        "baby_facil": "no",
        "lat": "-37.815838165017645",
        "lon": "144.96106207300267"
    },
    {
        "name": "Public Toilet - Toilet 119 - Fitzroy Gardens Toilets (150 Clarendon Street)",
        "female": "yes",
        "male": "yes",
        "wheelchair": "yes",
        "operator": "City of Melbourne",
        "baby_facil": "no",
        "lat": "-37.81203615704364",
        "lon": "144.98307493665166"
    },
    {
        "name": "Public Toilet - Toilet 110 - Queen Victoria Gardens (Linlithgow Avenue)",
        "female": "yes",
        "male": "yes",
        "wheelchair": "yes",
        "operator": "City of Melbourne",
        "baby_facil": "no",
        "lat": "-37.822948288677665",
        "lon": "144.97098568179823"
    },
    {
        "name": "Public Toilet - Toilet 41 - Flinders Street (No 245 Flinders Street Station)",
        "female": "yes",
        "male": "yes",
        "wheelchair": "yes",
        "operator": "City of Melbourne",
        "baby_facil": "no",
        "lat": "-37.81790319705616",
        "lon": "144.9662642552638"
    },
    {
        "name": "Public Toilet - Toilet 136 - Ievers Reserve - Flemington Road",
        "female": "yes",
        "male": "yes",
        "wheelchair": "yes",
        "operator": "City of Melbourne",
        "baby_facil": "no",
        "lat": "-37.79679899805757",
        "lon": "144.95196665126468"
    }
]